Time,header.seq,header.stamp.secs,header.stamp.nsecs,header.frame_id,nov_header.message_name,nov_header.message_id,nov_header.message_type,nov_header.sequence_number,nov_header.time_status,nov_header.gps_week_number,nov_header.gps_week_milliseconds,latitude,longitude,height,north_velocity,east_velocity,up_velocity,roll,pitch,azimuth,status.status
1698855810.01787,24654,1698855810,17874479,novatel_imu_link,INSPVA,508,0,0,20,2286,318228200,44.2411420641,-76.5102840652,72.6494750977,0.213,7.6775612831,0.0238323417,1.0168112865,0.3180074929,87.9318919393,3
1698855810.03787,24655,1698855810,37874460,novatel_imu_link,INSPVA,508,0,0,20,2286,318228220,44.2411421056,-76.5102821417,72.6499557495,0.211,7.6892728806,0.0209576078,1.0415790933,0.323199543,87.9351307595,3
1698855810.05787,24656,1698855810,57874441,novatel_imu_link,INSPVA,508,0,0,20,2286,318228240,44.2411421471,-76.5102802158,72.6503448486,0.212,7.6967606544,0.0197065435,1.0657473708,0.3217616386,87.9358750413,3
1698855810.07787,24657,1698855810,77874422,novatel_imu_link,INSPVA,508,0,0,20,2286,318228260,44.2411421889,-76.5102782884,72.6507949829,0.212,7.7027788162,0.0217678118,1.0899374293,0.3235381479,87.9343804258,3
1698855810.09787,24658,1698855810,97874402,novatel_imu_link,INSPVA,508,0,0,20,2286,318228280,44.2411422304,-76.5102763589,72.6511764526,0.214,7.7146697044,0.0162969176,1.1115333708,0.3231876303,87.9322762923,3
1698855810.11787,24659,1698855810,117874383,novatel_imu_link,INSPVA,508,0,0,20,2286,318228300,44.2411422719,-76.5102744251,72.6515045166,0.211,7.7385802269,0.0133273322,1.1310617071,0.3160738083,87.930879193,3
1698855810.13787,24660,1698855810,137874364,novatel_imu_link,INSPVA,508,0,0,20,2286,318228320,44.2411423127,-76.5102724831,72.6516113281,0.206,7.7727327347,-0.0037234535,1.1527797416,0.2850378945,87.9301501544,3
1698855810.15787,24661,1698855810,157874345,novatel_imu_link,INSPVA,508,0,0,20,2286,318228340,44.2411423512,-76.5102705391,72.6516494751,0.192,7.7518830299,0.0139449351,1.1842703981,0.2448668482,87.9290555875,3
1698855810.17787,24662,1698855810,177874326,novatel_imu_link,INSPVA,508,0,0,20,2286,318228360,44.2411423886,-76.5102685984,72.6521377563,0.197,7.7611327171,0.0248641297,1.2229752528,0.2369994153,87.9284056356,3
1698855810.19787,24663,1698855810,197874307,novatel_imu_link,INSPVA,508,0,0,20,2286,318228380,44.2411424267,-76.5102666547,72.6524887085,0.198,7.7595715523,0.0149547197,1.2501710958,0.2052656194,87.9306074854,3
1698855810.21787,24664,1698855810,217874288,novatel_imu_link,INSPVA,508,0,0,20,2286,318228400,44.2411424642,-76.5102647127,72.6530532837,0.193,7.7600712776,0.037515156,1.280477858,0.1967834115,87.9313085856,3
1698855810.23787,24665,1698855810,237874269,novatel_imu_link,INSPVA,508,0,0,20,2286,318228420,44.2411425008,-76.5102627708,72.6536941528,0.191,7.7552523613,0.0248860773,1.313328497,0.19235534,87.9331947292,3
1698855810.25787,24666,1698855810,257874250,novatel_imu_link,INSPVA,508,0,0,20,2286,318228440,44.2411425367,-76.5102608269,72.6542816162,0.189,7.7760896683,0.0324373469,1.3468085746,0.1911242897,87.9291912106,3
1698855810.27787,24667,1698855810,277874231,novatel_imu_link,INSPVA,508,0,0,20,2286,318228460,44.241142576,-76.5102588813,72.6548461914,0.228,7.7674212456,0.0256985929,1.3635613899,0.1916150407,87.9279678694,3
1698855810.29787,24668,1698855810,297874212,novatel_imu_link,INSPVA,508,0,0,20,2286,318228480,44.2411426202,-76.5102569367,72.6555938721,0.242,7.7669892311,0.0435072146,1.3582078524,0.1973435485,87.9252896585,3
1698855810.31787,24669,1698855810,317874193,novatel_imu_link,INSPVA,508,0,0,20,2286,318228500,44.2411426671,-76.5102549909,72.6563186646,0.261,7.7849349976,0.0275245178,1.3389669127,0.2172431702,87.9196619373,3
1698855810.33787,24670,1698855810,337874174,novatel_imu_link,INSPVA,508,0,0,20,2286,318228520,44.2411427165,-76.5102530405,72.6569061279,0.267,7.7842516899,0.0349453278,1.3172732211,0.2120127598,87.9186577729,3
1698855810.35787,24671,1698855810,357874155,novatel_imu_link,INSPVA,508,0,0,20,2286,318228540,44.2411427652,-76.5102510924,72.6577072144,0.259,7.7853856087,0.0392426699,1.3067963104,0.2379750118,87.9164542878,3
1698855810.37787,24672,1698855810,377874135,novatel_imu_link,INSPVA,508,0,0,20,2286,318228560,44.2411428142,-76.5102491424,72.6583938599,0.269,7.7886376381,0.0327168256,1.3008034057,0.2551351579,87.9182566847,3
1698855810.39787,24673,1698855810,397874116,novatel_imu_link,INSPVA,508,0,0,20,2286,318228580,44.2411428647,-76.5102471916,72.6592254639,0.278,7.7938203812,0.045750197,1.2938870311,0.2804196574,87.9223645584,3
1698855810.41787,24674,1698855810,417874097,novatel_imu_link,INSPVA,508,0,0,20,2286,318228600,44.241142917,-76.5102452407,72.6600723267,0.289,7.7925691605,0.0386198759,1.277041819,0.3117874007,87.9273726103,3
1698855810.43787,24675,1698855810,437874078,novatel_imu_link,INSPVA,508,0,0,20,2286,318228620,44.2411429723,-76.5102432886,72.660949707,0.309,7.7984910011,0.044673115,1.2448212322,0.3452923642,87.9330483321,3
1698855810.45787,24676,1698855810,457874059,novatel_imu_link,INSPVA,508,0,0,20,2286,318228640,44.2411430292,-76.5102413374,72.6615219116,0.305,7.7854909897,0.0040223366,1.2063488331,0.3990643757,87.9353736793,3
1698855810.47787,24677,1698855810,477874040,novatel_imu_link,INSPVA,508,0,0,20,2286,318228660,44.2411430849,-76.510239389,72.6612243652,0.299,7.7812356949,-0.0220746305,1.1642019088,0.4689294485,87.9336275525,3
1698855810.49787,24678,1698855810,497874021,novatel_imu_link,INSPVA,508,0,0,20,2286,318228680,44.2411431386,-76.5102374391,72.6611175537,0.283,7.7882666588,0.0095537975,1.131610929,0.5396390997,87.929411333,3
1698855810.51787,24679,1698855810,517874002,novatel_imu_link,INSPVA,508,0,0,20,2286,318228700,44.2411431911,-76.5102354867,72.6613311768,0.284,7.810500145,0.0105615882,1.1182057216,0.6099554832,87.9279221461,3
1698855810.53787,24680,1698855810,537873983,novatel_imu_link,INSPVA,508,0,0,20,2286,318228720,44.2411432419,-76.5102335274,72.6617126465,0.267,7.8312587738,0.0303258374,1.0999094746,0.6538578905,87.9296103059,3
1698855810.55787,24681,1698855810,557873964,novatel_imu_link,INSPVA,508,0,0,20,2286,318228740,44.2411432911,-76.5102315637,72.6626205444,0.256,7.8565778732,0.0558154061,1.0950782781,0.697564961,87.934050502,3
1698855810.57787,24682,1698855810,577873945,novatel_imu_link,INSPVA,508,0,0,20,2286,318228760,44.2411433367,-76.5102295947,72.6636810303,0.238,7.8605833054,0.0432786979,1.1151811667,0.7218470646,87.9380051616,3
1698855810.59787,24683,1698855810,597873926,novatel_imu_link,INSPVA,508,0,0,20,2286,318228780,44.2411433798,-76.5102276237,72.6643753052,0.23,7.8876581192,0.0341176093,1.1330059014,0.7537864465,87.9396983741,3
1698855810.61787,24684,1698855810,617873907,novatel_imu_link,INSPVA,508,0,0,20,2286,318228800,44.2411434262,-76.5102256476,72.6652450562,0.26,7.8887095451,0.0481878184,1.1478193584,0.7693564946,87.9491285507,3
1698855810.63787,24685,1698855810,637873888,novatel_imu_link,INSPVA,508,0,0,20,2286,318228820,44.2411434738,-76.5102236699,72.6661605835,0.255,7.9109268188,0.0422223285,1.1458752876,0.7880247516,87.9549885534,3
1698855810.65787,24686,1698855810,657873868,novatel_imu_link,INSPVA,508,0,0,20,2286,318228840,44.2411435237,-76.5102216862,72.6670837402,0.274,7.9288716316,0.0550535172,1.1378957433,0.7901500288,87.960830887,3
1698855810.67787,24687,1698855810,677873849,novatel_imu_link,INSPVA,508,0,0,20,2286,318228860,44.2411435746,-76.5102196972,72.6683273315,0.274,7.9526534081,0.0632299185,1.1208625134,0.7814708272,87.9628012247,3
1698855810.69787,24688,1698855810,697873830,novatel_imu_link,INSPVA,508,0,0,20,2286,318228880,44.2411436263,-76.5102177046,72.6696166992,0.272,7.9630160332,0.0711996555,1.1024259091,0.7626820661,87.9666312973,3
1698855810.71787,24689,1698855810,717873811,novatel_imu_link,INSPVA,508,0,0,20,2286,318228900,44.2411436774,-76.5102157075,72.6711959839,0.276,7.9829721451,0.0802284256,1.0846308626,0.7346824306,87.9673126832,3
1698855810.73787,24690,1698855810,737873792,novatel_imu_link,INSPVA,508,0,0,20,2286,318228920,44.241143729,-76.5102137063,72.672744751,0.271,7.997882843,0.0805964321,1.0696027126,0.7000323293,87.9695280467,3
1698855810.75787,24691,1698855810,757873773,novatel_imu_link,INSPVA,508,0,0,20,2286,318228940,44.2411437804,-76.5102117023,72.6744766235,0.277,8.0035161972,0.0885272175,1.0525463943,0.6581447451,87.9687860618,3
1698855810.77787,24692,1698855810,777873754,novatel_imu_link,INSPVA,508,0,0,20,2286,318228960,44.2411438329,-76.5102096968,72.6762161255,0.279,8.014670372,0.0856574476,1.0325796806,0.6153056943,87.9654843663,3
1698855810.79787,24693,1698855810,797873735,novatel_imu_link,INSPVA,508,0,0,20,2286,318228980,44.2411438864,-76.5102076893,72.6779708862,0.289,8.0155134201,0.0896358937,1.0096579389,0.5727378816,87.9614585281,3
1698855810.81787,24694,1698855810,817873716,novatel_imu_link,INSPVA,508,0,0,20,2286,318229000,44.2411439413,-76.5102056803,72.6797103882,0.289,8.0203895569,0.0864570662,0.9854129231,0.5353832229,87.9575528942,3
1698855810.83787,24695,1698855810,837873697,novatel_imu_link,INSPVA,508,0,0,20,2286,318229020,44.2411439958,-76.5102036698,72.6814422607,0.286,8.0250282288,0.0876570269,0.9627487113,0.4995300401,87.9528375826,3
1698855810.85787,24696,1698855810,857873678,novatel_imu_link,INSPVA,508,0,0,20,2286,318229040,44.2411440498,-76.510201658,72.6832122803,0.284,8.0288600922,0.087639831,0.9476483855,0.4640767795,87.9486192349,3
1698855810.87787,24697,1698855810,877873659,novatel_imu_link,INSPVA,508,0,0,20,2286,318229060,44.2411441028,-76.5101996462,72.6849212646,0.274,8.0290575027,0.0845445469,0.9394616123,0.4353955292,87.9441304525,3
1698855810.89787,24698,1698855810,897873640,novatel_imu_link,INSPVA,508,0,0,20,2286,318229080,44.2411441542,-76.5101976339,72.6865921021,0.267,8.0304632187,0.0814007521,0.9394784355,0.4110118098,87.9416508008,3
1698855810.91787,24699,1698855810,917873620,novatel_imu_link,INSPVA,508,0,0,20,2286,318229100,44.2411442047,-76.5101956214,72.6881256104,0.263,8.0338907242,0.07291428,0.9397653942,0.3936494726,87.940108266,3
1698855810.93787,24700,1698855810,937873601,novatel_imu_link,INSPVA,508,0,0,20,2286,318229120,44.241144255,-76.5101936084,72.6895141602,0.264,8.0329265594,0.0655587241,0.9391541297,0.3780765912,87.9395609875,3
1698855810.95787,24701,1698855810,957873582,novatel_imu_link,INSPVA,508,0,0,20,2286,318229140,44.2411443056,-76.5101915962,72.6907577515,0.268,8.0309333801,0.0595040396,0.9335499487,0.3728538252,87.9389939948,3
1698855810.97787,24702,1698855810,977873563,novatel_imu_link,INSPVA,508,0,0,20,2286,318229160,44.2411443567,-76.5101895835,72.6918792725,0.266,8.0334367752,0.0519053787,0.9249001235,0.3738337814,87.9398086267,3
1698855810.99787,24703,1698855810,997873544,novatel_imu_link,INSPVA,508,0,0,20,2286,318229180,44.2411444069,-76.5101875706,72.6928253174,0.261,8.0341777802,0.0438303873,0.9138646775,0.3801730217,87.9414088089,3
1698855811.01787,24704,1698855811,17873525,novatel_imu_link,INSPVA,508,0,0,20,2286,318229200,44.2411444562,-76.5101855565,72.6936340332,0.256,8.0418395996,0.0374736339,0.9078495819,0.3897232382,87.9459154162,3
1698855811.03787,24705,1698855811,37873506,novatel_imu_link,INSPVA,508,0,0,20,2286,318229220,44.2411445046,-76.5101835414,72.6943054199,0.252,8.044708252,0.0308130924,0.9052080055,0.4008809906,87.9526617515,3
1698855811.05787,24706,1698855811,57873487,novatel_imu_link,INSPVA,508,0,0,20,2286,318229240,44.241144552,-76.5101815246,72.6948776245,0.247,8.0544757843,0.0255634468,0.9053874472,0.4137432199,87.9636144013,3
1698855811.07787,24707,1698855811,77873468,novatel_imu_link,INSPVA,508,0,0,20,2286,318229260,44.241144599,-76.510179506,72.6953353882,0.245,8.0603170395,0.0216403306,0.9070173828,0.4272244562,87.9786502985,3
1698855811.09787,24708,1698855811,97873449,novatel_imu_link,INSPVA,508,0,0,20,2286,318229280,44.2411446453,-76.5101774851,72.6957702637,0.241,8.073261261,0.0201193951,0.912002803,0.4401189866,87.9949410902,3
1698855811.11787,24709,1698855811,117873430,novatel_imu_link,INSPVA,508,0,0,20,2286,318229300,44.2411446908,-76.5101754612,72.696144104,0.238,8.084854126,0.018586982,0.9196200413,0.4453427636,88.0116544994,3
1698855811.13787,24710,1698855811,137873411,novatel_imu_link,INSPVA,508,0,0,20,2286,318229320,44.2411447357,-76.5101734345,72.6965560913,0.235,8.096039772,0.0223539136,0.92862611,0.4504488555,88.0280280165,3
1698855811.15787,24711,1698855811,157873392,novatel_imu_link,INSPVA,508,0,0,20,2286,318229340,44.2411447795,-76.5101714047,72.6969833374,0.228,8.1075716019,0.0196801983,0.9403078146,0.4519830382,88.0444870362,3
1698855811.17787,24712,1698855811,177873373,novatel_imu_link,INSPVA,508,0,0,20,2286,318229360,44.2411448228,-76.5101693722,72.6974258423,0.231,8.1187458038,0.0255755223,0.9499273042,0.4498433386,88.0601977253,3
1698855811.19787,24713,1698855811,197873353,novatel_imu_link,INSPVA,508,0,0,20,2286,318229380,44.2411448663,-76.510167337,72.6979522705,0.229,8.1295604706,0.0264833979,0.9556600398,0.4440024724,88.0755681006,3
1698855811.21787,24714,1698855811,217873334,novatel_imu_link,INSPVA,508,0,0,20,2286,318229400,44.2411449097,-76.5101652995,72.6985321045,0.235,8.1376018524,0.0336163305,0.9548206241,0.4369208411,88.08909243,3
1698855811.23787,24715,1698855811,237873315,novatel_imu_link,INSPVA,508,0,0,20,2286,318229420,44.2411449536,-76.5101632597,72.699256897,0.233,8.147354126,0.037083026,0.95181025,0.4308806699,88.1015153852,3
1698855811.25787,24716,1698855811,257873296,novatel_imu_link,INSPVA,508,0,0,20,2286,318229440,44.241144997,-76.510161218,72.7000198364,0.233,8.1542310715,0.0399213694,0.9439580136,0.4227165201,88.1113976491,3
1698855811.27787,24717,1698855811,277873277,novatel_imu_link,INSPVA,508,0,0,20,2286,318229460,44.2411450403,-76.5101591745,72.7008972168,0.232,8.1620311737,0.0468495898,0.9363644371,0.4181329272,88.1203188331,3
1698855811.29787,24718,1698855811,297873258,novatel_imu_link,INSPVA,508,0,0,20,2286,318229480,44.2411450832,-76.5101571295,72.7018432617,0.23,8.1668796539,0.0473966338,0.9294128539,0.4141280407,88.1278686983,3
1698855811.31787,24719,1698855811,317873239,novatel_imu_link,INSPVA,508,0,0,20,2286,318229500,44.2411451257,-76.5101550829,72.702835083,0.229,8.1743011475,0.0519859456,0.9218729489,0.4125897677,88.1360800942,3
1698855811.33787,24720,1698855811,337873220,novatel_imu_link,INSPVA,508,0,0,20,2286,318229520,44.2411451679,-76.5101530348,72.7038879395,0.226,8.1778078079,0.0523618795,0.9178036801,0.4157292256,88.1468113633,3
1698855811.35787,24721,1698855811,357873201,novatel_imu_link,INSPVA,508,0,0,20,2286,318229540,44.2411452092,-76.5101509854,72.7049560547,0.221,8.1855354309,0.0532911345,0.9176808254,0.4222147535,88.1574413356,3
1698855811.37787,24722,1698855811,377873182,novatel_imu_link,INSPVA,508,0,0,20,2286,318229560,44.2411452503,-76.5101489341,72.7060317993,0.223,8.1921072006,0.0532498658,0.921886325,0.4281534486,88.1690840647,3
1698855811.39787,24723,1698855811,397873163,novatel_imu_link,INSPVA,508,0,0,20,2286,318229580,44.2411452909,-76.5101468812,72.7070770264,0.217,8.2001056671,0.0514764152,0.927986007,0.4388811682,88.1805739227,3
1698855811.41787,24724,1698855811,417873144,novatel_imu_link,INSPVA,508,0,0,20,2286,318229600,44.2411453306,-76.510144826,72.7080841064,0.215,8.2077569962,0.0483639091,0.9386925159,0.449209069,88.1932017122,3
1698855811.43787,24725,1698855811,437873125,novatel_imu_link,INSPVA,508,0,0,20,2286,318229620,44.2411453702,-76.5101427688,72.7090301514,0.218,8.2172899246,0.045868285,0.9460867393,0.4610982872,88.2051744664,3
1698855811.45787,24726,1698855811,457873106,novatel_imu_link,INSPVA,508,0,0,20,2286,318229640,44.2411454106,-76.5101407095,72.7099151611,0.22,8.2243318558,0.0420637392,0.948242046,0.4714680362,88.217360002,3
1698855811.47787,24727,1698855811,477873086,novatel_imu_link,INSPVA,508,0,0,20,2286,318229660,44.2411454517,-76.5101386488,72.7107467651,0.229,8.2318496704,0.0420504324,0.9414837222,0.4866440056,88.2281305953,3
1698855811.49787,24728,1698855811,497873067,novatel_imu_link,INSPVA,508,0,0,20,2286,318229680,44.2411454934,-76.5101365854,72.7115631104,0.224,8.2428770065,0.0384999141,0.9328025502,0.4987795492,88.2383064063,3
1698855811.51787,24729,1698855811,517873048,novatel_imu_link,INSPVA,508,0,0,20,2286,318229700,44.2411455348,-76.5101345201,72.7123260498,0.228,8.2511234283,0.0387832411,0.9204383931,0.5124270469,88.2475466273,3
1698855811.53787,24730,1698855811,537873029,novatel_imu_link,INSPVA,508,0,0,20,2286,318229720,44.2411455761,-76.5101324519,72.7130966187,0.222,8.2623348236,0.0376906544,0.9079416131,0.5240053936,88.2557340914,3
1698855811.55787,24731,1698855811,557873010,novatel_imu_link,INSPVA,508,0,0,20,2286,318229740,44.2411456173,-76.5101303816,72.7138366699,0.225,8.2714357376,0.0376062095,0.8987820802,0.537007521,88.2640509051,3
1698855811.57787,24732,1698855811,577872991,novatel_imu_link,INSPVA,508,0,0,20,2286,318229760,44.2411456583,-76.5101283085,72.7146224976,0.224,8.2827262878,0.0388423316,0.8879154767,0.5455350747,88.273617805,3
1698855811.59787,24733,1698855811,597872972,novatel_imu_link,INSPVA,508,0,0,20,2286,318229780,44.2411456996,-76.5101262326,72.7154312134,0.222,8.2954969406,0.0422821119,0.8806104774,0.5527943615,88.2857091669,3
1698855811.61787,24734,1698855811,617872953,novatel_imu_link,INSPVA,508,0,0,20,2286,318229800,44.24114574,-76.5101241531,72.7163009644,0.221,8.3094024658,0.0444888286,0.8747767253,0.556102415,88.295309647,3
1698855811.63787,24735,1698855811,637872934,novatel_imu_link,INSPVA,508,0,0,20,2286,318229820,44.2411457808,-76.5101220703,72.7172241211,0.218,8.32051754,0.0483052768,0.874959616,0.5526647829,88.3053358394,3
1698855811.65787,24736,1698855811,657872915,novatel_imu_link,INSPVA,508,0,0,20,2286,318229840,44.2411458208,-76.510119985,72.7182235718,0.216,8.332444191,0.0507269576,0.8762770533,0.5506495899,88.3128628995,3
1698855811.67787,24737,1698855811,677872896,novatel_imu_link,INSPVA,508,0,0,20,2286,318229860,44.2411458608,-76.5101178964,72.7192306519,0.216,8.3436136246,0.0510602631,0.8764505427,0.5415109462,88.3197459115,3
1698855811.69787,24738,1698855811,697872877,novatel_imu_link,INSPVA,508,0,0,20,2286,318229880,44.2411459018,-76.5101158053,72.7202758789,0.225,8.3547058105,0.0534259416,0.872509687,0.5335904322,88.3250543609,3
1698855811.71787,24739,1698855811,717872858,novatel_imu_link,INSPVA,508,0,0,20,2286,318229900,44.2411459437,-76.5101137119,72.7213363647,0.23,8.3590040207,0.0532759391,0.8603136126,0.522585924,88.3278300919,3
1698855811.73787,24740,1698855811,737872838,novatel_imu_link,INSPVA,508,0,0,20,2286,318229920,44.2411459874,-76.5101116169,72.7224273682,0.237,8.3706674576,0.0561562926,0.840382013,0.516848026,88.3299742029,3
1698855811.75787,24741,1698855811,757872819,novatel_imu_link,INSPVA,508,0,0,20,2286,318229940,44.2411460316,-76.5101095197,72.723526001,0.24,8.3742275238,0.0540659688,0.8144124329,0.5068156371,88.329348991,3
1698855811.77787,24742,1698855811,777872800,novatel_imu_link,INSPVA,508,0,0,20,2286,318229960,44.2411460765,-76.5101074209,72.7246398926,0.241,8.3848209381,0.0575568415,0.7896153438,0.500819117,88.3286976553,3
1698855811.79787,24743,1698855811,797872781,novatel_imu_link,INSPVA,508,0,0,20,2286,318229980,44.2411461217,-76.5101053205,72.725769043,0.243,8.3880462646,0.0563572533,0.7638058663,0.4970422656,88.3264073123,3
1698855811.81787,24744,1698855811,817872762,novatel_imu_link,INSPVA,508,0,0,20,2286,318230000,44.2411461672,-76.5101032173,72.7269134521,0.239,8.3991136551,0.0565998405,0.7405536798,0.4917696756,88.3256668184,3
1698855811.83787,24745,1698855811,837872743,novatel_imu_link,INSPVA,508,0,0,20,2286,318230020,44.2411462124,-76.5101011131,72.7280426025,0.24,8.4042692184,0.0570770204,0.7197090678,0.4903228491,88.3277870953,3
1698855811.85787,24746,1698855811,857872724,novatel_imu_link,INSPVA,508,0,0,20,2286,318230040,44.2411462566,-76.5100990067,72.7291641235,0.232,8.4155845642,0.0544400811,0.7057060856,0.4868496866,88.330568467,3
1698855811.87787,24747,1698855811,877872705,novatel_imu_link,INSPVA,508,0,0,20,2286,318230060,44.2411463003,-76.5100968976,72.7302322388,0.231,8.4260053635,0.0550851524,0.6965104247,0.4800477812,88.3336407822,3
1698855811.89787,24748,1698855811,897872686,novatel_imu_link,INSPVA,508,0,0,20,2286,318230080,44.2411463431,-76.5100947862,72.7313308716,0.224,8.4326019287,0.0537007339,0.6923037597,0.474557471,88.3353011015,3
1698855811.91787,24749,1698855811,917872667,novatel_imu_link,INSPVA,508,0,0,20,2286,318230100,44.2411463854,-76.5100926725,72.7323226929,0.223,8.4444971085,0.0488444939,0.6923353614,0.4665263017,88.3376642199,3
1698855811.93787,24750,1698855811,937872648,novatel_imu_link,INSPVA,508,0,0,20,2286,318230120,44.2411464274,-76.5100905565,72.733291626,0.224,8.4526309967,0.0482454002,0.6906526938,0.4583391345,88.3384842282,3
1698855811.95787,24751,1698855811,957872629,novatel_imu_link,INSPVA,508,0,0,20,2286,318230140,44.2411464699,-76.5100884381,72.7341995239,0.227,8.4605913162,0.0439974666,0.6842593618,0.4446686776,88.3384206234,3
1698855811.97787,24752,1698855811,977872610,novatel_imu_link,INSPVA,508,0,0,20,2286,318230160,44.2411465134,-76.5100863187,72.7350845337,0.233,8.4649429321,0.0479237251,0.6723729665,0.4401222808,88.3373698206,3
1698855811.99787,24753,1698855811,997872591,novatel_imu_link,INSPVA,508,0,0,20,2286,318230180,44.2411465571,-76.5100841971,72.7359924316,0.231,8.4733839035,0.041835133,0.6588272837,0.4309372963,88.3347745295,3
1698855812.01787,24754,1698855812,17872571,novatel_imu_link,INSPVA,508,0,0,20,2286,318230200,44.2411466008,-76.5100820744,72.7368240356,0.232,8.4786596298,0.0451270454,0.643673079,0.4265990607,88.3310922823,3
1698855812.03787,24755,1698855812,37872552,novatel_imu_link,INSPVA,508,0,0,20,2286,318230220,44.2411466444,-76.51007995,72.7377090454,0.23,8.482542038,0.0423610732,0.6300754228,0.4222829522,88.3257468234,3
1698855812.05787,24756,1698855812,57872533,novatel_imu_link,INSPVA,508,0,0,20,2286,318230240,44.2411466881,-76.5100778247,72.7385177612,0.233,8.4903593063,0.0421367027,0.6183783884,0.4241179231,88.3199945504,3
1698855812.07787,24757,1698855812,77872514,novatel_imu_link,INSPVA,508,0,0,20,2286,318230260,44.2411467325,-76.5100756973,72.7393569946,0.238,8.4956359863,0.0418303534,0.6035559596,0.4243382549,88.3163575227,3
1698855812.09787,24758,1698855812,97872495,novatel_imu_link,INSPVA,508,0,0,20,2286,318230280,44.2411467772,-76.5100735685,72.7401885986,0.234,8.503903389,0.042714525,0.5902071733,0.425601742,88.3139546575,3
1698855812.11787,24759,1698855812,117872476,novatel_imu_link,INSPVA,508,0,0,20,2286,318230300,44.2411468212,-76.5100714374,72.7410354614,0.235,8.513502121,0.042483028,0.5826488182,0.4271250302,88.3103952077,3
1698855812.13787,24760,1698855812,137872457,novatel_imu_link,INSPVA,508,0,0,20,2286,318230320,44.2411468651,-76.5100693041,72.7418746948,0.23,8.5202283859,0.0434248745,0.5807563337,0.426870733,88.3073822648,3
1698855812.15787,24761,1698855812,157872438,novatel_imu_link,INSPVA,508,0,0,20,2286,318230340,44.2411469076,-76.510067169,72.742729187,0.227,8.5293483734,0.0411811508,0.5832639093,0.4279422903,88.3031617367,3
1698855812.17787,24762,1698855812,177872419,novatel_imu_link,INSPVA,508,0,0,20,2286,318230360,44.2411469503,-76.5100650318,72.7434844971,0.229,8.5370664597,0.0381730869,0.5837806239,0.4270722048,88.2997386034,3
1698855812.19787,24763,1698855812,197872400,novatel_imu_link,INSPVA,508,0,0,20,2286,318230380,44.2411469934,-76.5100628926,72.7442474365,0.234,8.5450525284,0.0376996137,0.5819710534,0.4259859741,88.2951987232,3
1698855812.21787,24764,1698855812,217872381,novatel_imu_link,INSPVA,508,0,0,20,2286,318230400,44.2411470372,-76.510060752,72.7449569702,0.241,8.5500688553,0.0354961641,0.5734641579,0.427900025,88.2903040616,3
1698855812.23787,24765,1698855812,237872362,novatel_imu_link,INSPVA,508,0,0,20,2286,318230420,44.2411470821,-76.5100586092,72.7456665039,0.24,8.5612077713,0.036074955,0.5605663542,0.4285807757,88.2864457471,3
1698855812.25787,24766,1698855812,257872343,novatel_imu_link,INSPVA,508,0,0,20,2286,318230440,44.2411471262,-76.5100564645,72.74634552,0.239,8.5678501129,0.0331043638,0.5462250037,0.428596164,88.2806423911,3
1698855812.27787,24767,1698855812,277872323,novatel_imu_link,INSPVA,508,0,0,20,2286,318230460,44.2411471704,-76.5100543174,72.7470245361,0.239,8.5787239075,0.0361585356,0.5374178362,0.4283736283,88.276328636,3
1698855812.29787,24768,1698855812,297872304,novatel_imu_link,INSPVA,508,0,0,20,2286,318230480,44.2411472139,-76.5100521684,72.7477111816,0.236,8.5856933594,0.0331288986,0.5308176848,0.4283699467,88.2709388146,3
1698855812.31787,24769,1698855812,317872285,novatel_imu_link,INSPVA,508,0,0,20,2286,318230500,44.2411472574,-76.5100500167,72.7483825684,0.238,8.5993309021,0.0343356058,0.5222103634,0.4247590689,88.2685484255,3
1698855812.33787,24770,1698855812,337872266,novatel_imu_link,INSPVA,508,0,0,20,2286,318230520,44.241147301,-76.5100478627,72.7490615845,0.237,8.6048812866,0.0343306288,0.5162610028,0.4213867392,88.2681823065,3
1698855812.35787,24771,1698855812,357872247,novatel_imu_link,INSPVA,508,0,0,20,2286,318230540,44.2411473442,-76.5100457061,72.74974823,0.239,8.6182785034,0.0340003334,0.511941592,0.4163220546,88.2671452493,3
1698855812.37787,24772,1698855812,377872228,novatel_imu_link,INSPVA,508,0,0,20,2286,318230560,44.2411473881,-76.5100435473,72.7504196167,0.238,8.6236391068,0.035565488,0.5080046703,0.4103153663,88.2672953699,3
1698855812.39787,24773,1698855812,397872209,novatel_imu_link,INSPVA,508,0,0,20,2286,318230580,44.2411474312,-76.5100413867,72.7511291504,0.236,8.6344470978,0.0340612121,0.5066822616,0.4054054763,88.2664481846,3
1698855812.41787,24774,1698855812,417872190,novatel_imu_link,INSPVA,508,0,0,20,2286,318230600,44.2411474744,-76.5100392239,72.7517929077,0.238,8.6411943436,0.034161374,0.5056102257,0.3988032449,88.2674892633,3
1698855812.43787,24775,1698855812,437872171,novatel_imu_link,INSPVA,508,0,0,20,2286,318230620,44.2411475184,-76.510037059,72.752494812,0.245,8.6504507065,0.0355082601,0.5010554096,0.3935592588,88.2692512402,3
1698855812.45787,24776,1698855812,457872152,novatel_imu_link,INSPVA,508,0,0,20,2286,318230640,44.2411475632,-76.5100348927,72.7531967163,0.251,8.6539487839,0.0366789587,0.4875811962,0.3892622489,88.2716727972,3
1698855812.47787,24777,1698855812,477872133,novatel_imu_link,INSPVA,508,0,0,20,2286,318230660,44.2411476097,-76.5100327247,72.7539901733,0.258,8.6637220383,0.0408811122,0.4669596302,0.3883790696,88.2770273187,3
1698855812.49787,24778,1698855812,497872114,novatel_imu_link,INSPVA,508,0,0,20,2286,318230680,44.2411476561,-76.5100305551,72.7547683716,0.258,8.6687641144,0.0383559056,0.4412997913,0.3859668553,88.2808127414,3
1698855812.51787,24779,1698855812,517872095,novatel_imu_link,INSPVA,508,0,0,20,2286,318230700,44.2411477027,-76.5100283836,72.7555923462,0.255,8.6774139404,0.0439229868,0.4188997199,0.3857856647,88.2860514746,3
1698855812.53787,24780,1698855812,537872076,novatel_imu_link,INSPVA,508,0,0,20,2286,318230720,44.2411477484,-76.5100262109,72.7564239502,0.253,8.681183815,0.0404047966,0.3963106054,0.3908410871,88.2897108324,3
1698855812.55787,24781,1698855812,557872056,novatel_imu_link,INSPVA,508,0,0,20,2286,318230740,44.2411477936,-76.5100240364,72.7572555542,0.248,8.6892805099,0.043390587,0.3766389021,0.3933113218,88.2967755083,3
1698855812.57787,24782,1698855812,577872037,novatel_imu_link,INSPVA,508,0,0,20,2286,318230760,44.241147838,-76.5100218609,72.7581100464,0.244,8.694237709,0.0430308469,0.3622591319,0.4034876262,88.3062024888,3
1698855812.59787,24783,1698855812,597872018,novatel_imu_link,INSPVA,508,0,0,20,2286,318230780,44.2411478808,-76.5100196829,72.758934021,0.231,8.704410553,0.0402538851,0.3548536328,0.4113209975,88.3161459464,3
1698855812.61787,24784,1698855812,617871999,novatel_imu_link,INSPVA,508,0,0,20,2286,318230800,44.2411479223,-76.5100175031,72.7597503662,0.227,8.7111244202,0.0418724194,0.3559215842,0.4218820872,88.3272738143,3
1698855812.63787,24785,1698855812,637871980,novatel_imu_link,INSPVA,508,0,0,20,2286,318230820,44.2411479619,-76.5100153214,72.7605361938,0.213,8.71875,0.037411917,0.3638907204,0.4321251778,88.3370665727,3
1698855812.65787,24786,1698855812,657871961,novatel_imu_link,INSPVA,508,0,0,20,2286,318230840,44.2411480005,-76.5100131376,72.7612762451,0.212,8.7285985947,0.038601175,0.3761417197,0.4436405028,88.3475663701,3
1698855812.67787,24787,1698855812,677871942,novatel_imu_link,INSPVA,508,0,0,20,2286,318230860,44.2411480392,-76.5100109511,72.7620162964,0.215,8.7379312515,0.0350763425,0.3835913704,0.4528604029,88.3567503148,3
1698855812.69787,24788,1698855812,697871923,novatel_imu_link,INSPVA,508,0,0,20,2286,318230880,44.2411480785,-76.5100087623,72.7627029419,0.217,8.746591568,0.0361124575,0.3820736458,0.4600481724,88.3647082275,3
1698855812.71787,24789,1698855812,717871904,novatel_imu_link,INSPVA,508,0,0,20,2286,318230900,44.2411481187,-76.5100065713,72.763420105,0.219,8.7582368851,0.0358529948,0.3750938796,0.4710831753,88.3732535445,3
1698855812.73787,24790,1698855812,737871885,novatel_imu_link,INSPVA,508,0,0,20,2286,318230920,44.2411481581,-76.5100043772,72.7640838623,0.214,8.7675485611,0.0319767557,0.3658324553,0.4737653429,88.3794676111,3
1698855812.75787,24791,1698855812,757871866,novatel_imu_link,INSPVA,508,0,0,20,2286,318230940,44.2411481972,-76.5100021803,72.7647399902,0.209,8.781671524,0.0360461101,0.3618796538,0.4787380712,88.3859869381,3
1698855812.77787,24792,1698855812,777871847,novatel_imu_link,INSPVA,508,0,0,20,2286,318230960,44.2411482351,-76.5099999807,72.7654190063,0.204,8.7894258499,0.033184927,0.3607985039,0.4804938484,88.3905195462,3
1698855812.79787,24793,1698855812,797871828,novatel_imu_link,INSPVA,508,0,0,20,2286,318230980,44.2411482726,-76.5099977779,72.7660980225,0.202,8.8051528931,0.0355669558,0.36180714,0.476903724,88.3976838041,3
1698855812.81787,24794,1698855812,817871809,novatel_imu_link,INSPVA,508,0,0,20,2286,318231000,44.2411483103,-76.5099955721,72.7668151855,0.2,8.8112535477,0.0362944938,0.3667273664,0.4758070714,88.4069065041,3
1698855812.83787,24795,1698855812,837871789,novatel_imu_link,INSPVA,508,0,0,20,2286,318231020,44.2411483467,-76.5099933631,72.7675476074,0.193,8.826751709,0.0373276845,0.3753917141,0.4687449468,88.4148224635,3
1698855812.85787,24796,1698855812,857871770,novatel_imu_link,INSPVA,508,0,0,20,2286,318231040,44.2411483827,-76.5099911517,72.7683105469,0.189,8.8345355988,0.0417764224,0.3910937092,0.4611971296,88.4232599597,3
1698855812.87787,24797,1698855812,877871751,novatel_imu_link,INSPVA,508,0,0,20,2286,318231060,44.2411484176,-76.5099889365,72.7690963745,0.186,8.858212471,0.037276756,0.4098242629,0.4491933485,88.4293203508,3
1698855812.89787,24798,1698855812,897871732,novatel_imu_link,INSPVA,508,0,0,20,2286,318231080,44.241148451,-76.5099867145,72.7697296143,0.161,8.8809871674,0.0301947575,0.4403246951,0.4182308261,88.435533877,3
1698855812.91787,24799,1698855812,917871713,novatel_imu_link,INSPVA,508,0,0,20,2286,318231100,44.2411484818,-76.5099844913,72.7704086304,0.178,8.8728818893,0.0421449766,0.4729025253,0.3901843112,88.4376321328,3
1698855812.93787,24800,1698855812,937871694,novatel_imu_link,INSPVA,508,0,0,20,2286,318231120,44.241148517,-76.5099822673,72.771270752,0.188,8.886631012,0.04110061,0.489322086,0.3690356923,88.4423680923,3
1698855812.95787,24801,1698855812,957871675,novatel_imu_link,INSPVA,508,0,0,20,2286,318231140,44.2411485539,-76.5099800403,72.7719497681,0.202,8.898396492,0.0351661071,0.4855807181,0.3417418918,88.4399175899,3
1698855812.97787,24802,1698855812,977871656,novatel_imu_link,INSPVA,508,0,0,20,2286,318231160,44.2411485912,-76.50997781,72.7726898193,0.196,8.9046087265,0.0370719321,0.4857151943,0.3091108979,88.4367196147,3
1698855812.99787,24803,1698855812,997871637,novatel_imu_link,INSPVA,508,0,0,20,2286,318231180,44.2411486288,-76.5099755794,72.7733764648,0.199,8.9089784622,0.0372169614,0.4851602959,0.2855030072,88.4277096845,3
1698855813.01787,24804,1698855813,17871618,novatel_imu_link,INSPVA,508,0,0,20,2286,318231200,44.2411486662,-76.5099733472,72.7741012573,0.199,8.9132184982,0.0350851528,0.4880325946,0.263760253,88.4144031166,3
1698855813.03787,24805,1698855813,37871599,novatel_imu_link,INSPVA,508,0,0,20,2286,318231220,44.241148704,-76.5099711131,72.7747268677,0.198,8.92162323,0.0315123983,0.4955587407,0.2377679394,88.4040111468,3
1698855813.05787,24806,1698855813,57871580,novatel_imu_link,INSPVA,508,0,0,20,2286,318231240,44.2411487418,-76.5099688785,72.7753677368,0.2,8.9231414795,0.0343311317,0.5056942223,0.2232260083,88.3927073841,3
1698855813.07787,24807,1698855813,77871561,novatel_imu_link,INSPVA,508,0,0,20,2286,318231260,44.24114878,-76.5099666409,72.7759399414,0.203,8.9358463287,0.0245464891,0.5197449794,0.1975061987,88.3795843687,3
1698855813.09787,24808,1698855813,97871541,novatel_imu_link,INSPVA,508,0,0,20,2286,318231280,44.2411488188,-76.5099644028,72.7764434814,0.206,8.9349880219,0.0310705677,0.5377744552,0.1806129721,88.3628621508,3
1698855813.11787,24809,1698855813,117871522,novatel_imu_link,INSPVA,508,0,0,20,2286,318231300,44.241148858,-76.5099621638,72.7769927979,0.211,8.9390954971,0.0223277807,0.5578631705,0.1627124914,88.3422056545,3
1698855813.13787,24810,1698855813,137871503,novatel_imu_link,INSPVA,508,0,0,20,2286,318231320,44.2411488984,-76.509959924,72.7773971558,0.22,8.9458007812,0.0245642476,0.5735375742,0.1449967763,88.3196615164,3
1698855813.15787,24811,1698855813,157871484,novatel_imu_link,INSPVA,508,0,0,20,2286,318231340,44.2411489406,-76.5099576831,72.7778778076,0.231,8.9453525543,0.021779241,0.5840768307,0.131048086,88.2940372472,3
1698855813.17787,24812,1698855813,177871465,novatel_imu_link,INSPVA,508,0,0,20,2286,318231360,44.2411489852,-76.5099554435,72.7780838013,0.247,8.9341239929,-0.0026489745,0.5876759528,0.1272494485,88.2685572766,3
1698855813.19787,24813,1698855813,197871446,novatel_imu_link,INSPVA,508,0,0,20,2286,318231380,44.2411490297,-76.5099532058,72.7778015137,0.23,8.9403877258,-0.014011113,0.5939795022,0.1400995037,88.2376643562,3
1698855813.21787,24814,1698855813,217871427,novatel_imu_link,INSPVA,508,0,0,20,2286,318231400,44.2411490757,-76.5099509655,72.7777252197,0.27,8.9403743744,0.0044807708,0.5893812041,0.1389993658,88.2003848556,3
1698855813.23787,24815,1698855813,237871408,novatel_imu_link,INSPVA,508,0,0,20,2286,318231420,44.2411491247,-76.5099487265,72.7776794434,0.255,8.9454813004,-0.0086605418,0.5796365712,0.1567112793,88.1623374585,3
1698855813.25787,24816,1698855813,257871389,novatel_imu_link,INSPVA,508,0,0,20,2286,318231440,44.241149175,-76.5099464849,72.7775192261,0.294,8.9507522583,-0.0003060212,0.5717427932,0.1643669869,88.1191188646,3
1698855813.27787,24817,1698855813,277871370,novatel_imu_link,INSPVA,508,0,0,20,2286,318231460,44.2411492286,-76.5099442428,72.7775421143,0.294,8.9559955597,-0.0013333891,0.5559060682,0.1787330148,88.0740164487,3
1698855813.29787,24818,1698855813,297871351,novatel_imu_link,INSPVA,508,0,0,20,2286,318231480,44.2411492843,-76.5099420003,72.7774276733,0.305,8.9552297592,-0.0027142118,0.5349007868,0.1898845628,88.0304286898,3
1698855813.31787,24819,1698855813,317871332,novatel_imu_link,INSPVA,508,0,0,20,2286,318231500,44.2411493402,-76.5099397569,72.7774505615,0.316,8.9601287842,0.001569079,0.5243214985,0.2089967199,87.980730444,3
1698855813.33787,24820,1698855813,337871313,novatel_imu_link,INSPVA,508,0,0,20,2286,318231520,44.2411493985,-76.5099375125,72.7773895264,0.319,8.9632406235,-0.0012144351,0.524753878,0.2293853363,87.9311925344,3
1698855813.35787,24821,1698855813,357871294,novatel_imu_link,INSPVA,508,0,0,20,2286,318231540,44.2411494579,-76.509935268,72.7774734497,0.341,8.9618701935,0.0091982987,0.5154406279,0.2522194901,87.8781446504,3
1698855813.37787,24822,1698855813,377871274,novatel_imu_link,INSPVA,508,0,0,20,2286,318231560,44.2411495214,-76.5099330227,72.77759552,0.357,8.9716920853,0.0043701138,0.4968910645,0.2740658324,87.8258647958,3
1698855813.39787,24823,1698855813,397871255,novatel_imu_link,INSPVA,508,0,0,20,2286,318231580,44.2411495879,-76.5099307766,72.7777709961,0.377,8.9663667679,0.0167360958,0.4746766398,0.297693617,87.7689469919,3
1698855813.41787,24824,1698855813,417871236,novatel_imu_link,INSPVA,508,0,0,20,2286,318231600,44.2411496572,-76.5099285307,72.7781524658,0.391,8.9733304977,0.0192208774,0.4460090768,0.3283558435,87.7080308748,3
1698855813.43787,24825,1698855813,437871217,novatel_imu_link,INSPVA,508,0,0,20,2286,318231620,44.2411497289,-76.5099262838,72.7785263062,0.4,8.9744558334,0.0236549173,0.408672361,0.3510062161,87.6462542028,3
1698855813.45787,24826,1698855813,457871198,novatel_imu_link,INSPVA,508,0,0,20,2286,318231640,44.2411498015,-76.5099240361,72.7790985107,0.407,8.98072052,0.0314230062,0.3768038411,0.3753728066,87.5819230625,3
1698855813.47787,24827,1698855813,477871179,novatel_imu_link,INSPVA,508,0,0,20,2286,318231660,44.2411498752,-76.5099217876,72.7797012329,0.412,8.9811820984,0.0320005454,0.3518886397,0.3969826024,87.516386774,3
1698855813.49787,24828,1698855813,497871160,novatel_imu_link,INSPVA,508,0,0,20,2286,318231680,44.2411499503,-76.5099195391,72.7804107666,0.423,8.9814872742,0.0383540392,0.3261314567,0.4200265218,87.4518810411,3
1698855813.51787,24829,1698855813,517871141,novatel_imu_link,INSPVA,508,0,0,20,2286,318231700,44.2411500264,-76.5099172903,72.7811508179,0.423,8.9842710495,0.0378786959,0.3070500597,0.4416414207,87.388288934,3
1698855813.53787,24830,1698855813,537871122,novatel_imu_link,INSPVA,508,0,0,20,2286,318231720,44.2411501024,-76.509915041,72.7819824219,0.429,8.9863414764,0.0464371778,0.298182753,0.4632162581,87.3212361474,3
1698855813.55787,24831,1698855813,557871103,novatel_imu_link,INSPVA,508,0,0,20,2286,318231740,44.2411501817,-76.5099127905,72.7828674316,0.457,8.9930696487,0.0418751426,0.2851681531,0.4817216753,87.2561082474,3
1698855813.57787,24832,1698855813,577871084,novatel_imu_link,INSPVA,508,0,0,20,2286,318231760,44.2411502651,-76.509910539,72.7836914062,0.474,8.9958724976,0.0443806909,0.2573463786,0.4969163813,87.1919648285,3
1698855813.59787,24833,1698855813,597871065,novatel_imu_link,INSPVA,508,0,0,20,2286,318231780,44.2411503527,-76.5099082864,72.784614563,0.504,8.9995508194,0.047282353,0.2188845759,0.5089973542,87.1270084864,3
1698855813.61787,24834,1698855813,617871046,novatel_imu_link,INSPVA,508,0,0,20,2286,318231800,44.2411504451,-76.5099060339,72.7855606079,0.527,8.9964723587,0.052439861,0.1675910414,0.5211448496,87.0600607775,3
1698855813.63787,24835,1698855813,637871026,novatel_imu_link,INSPVA,508,0,0,20,2286,318231820,44.2411505431,-76.5099037822,72.7867050171,0.563,8.9913578033,0.0617263168,0.0993405202,0.5342061662,86.9951003487,3
1698855813.65787,24836,1698855813,657871007,novatel_imu_link,INSPVA,508,0,0,20,2286,318231840,44.241150647,-76.5099015316,72.7879486084,0.589,8.9915151596,0.0647201091,0.0139853097,0.5514606012,86.9311328216,3
1698855813.67787,24837,1698855813,677870988,novatel_imu_link,INSPVA,508,0,0,20,2286,318231860,44.2411507537,-76.5098992798,72.7892532349,0.59,8.9969234467,0.0673912689,-0.0681301196,0.5640722981,86.8666165464,3
1698855813.69787,24838,1698855813,697870969,novatel_imu_link,INSPVA,508,0,0,20,2286,318231880,44.2411508597,-76.5098970261,72.7905960083,0.585,9.0033655167,0.069832623,-0.1337718337,0.5682421263,86.8019931262,3
1698855813.71787,24839,1698855813,717870950,novatel_imu_link,INSPVA,508,0,0,20,2286,318231900,44.2411509638,-76.509894772,72.7920227051,0.568,9.00502491,0.075297758,-0.174358466,0.5762705695,86.7394933778,3
1698855813.73787,24840,1698855813,737870931,novatel_imu_link,INSPVA,508,0,0,20,2286,318231920,44.2411510656,-76.5098925164,72.7935028076,0.555,9.0100450516,0.0739813447,-0.1903771576,0.5754114303,86.6785163676,3
1698855813.75787,24841,1698855813,757870912,novatel_imu_link,INSPVA,508,0,0,20,2286,318231940,44.2411511645,-76.5098902607,72.7949981689,0.536,9.0116624832,0.078937307,-0.1817834477,0.5802213351,86.6169146786,3
1698855813.77787,24842,1698855813,777870893,novatel_imu_link,INSPVA,508,0,0,20,2286,318231960,44.2411512606,-76.5098880029,72.7965316772,0.525,9.0195083618,0.074776493,-0.1569618945,0.5760740052,86.5528964063,3
1698855813.79787,24843,1698855813,797870874,novatel_imu_link,INSPVA,508,0,0,20,2286,318231980,44.2411513552,-76.5098857442,72.7980270386,0.513,9.0222806931,0.0805839598,-0.1212995451,0.5717029326,86.4873171665,3
1698855813.81787,24844,1698855813,817870855,novatel_imu_link,INSPVA,508,0,0,20,2286,318232000,44.2411514478,-76.5098834845,72.7996673584,0.505,9.0206537247,0.0811262131,-0.076254953,0.5654176705,86.4164797717,3
1698855813.83787,24845,1698855813,837870836,novatel_imu_link,INSPVA,508,0,0,20,2286,318232020,44.2411515409,-76.5098812253,72.8012619019,0.523,9.0176286697,0.0800954923,-0.0407848085,0.560380918,86.3436065211,3
1698855813.85787,24846,1698855813,857870817,novatel_imu_link,INSPVA,508,0,0,20,2286,318232040,44.2411516393,-76.5098789675,72.8027954102,0.555,9.0110120773,0.0746414065,-0.0274606021,0.5609001233,86.2723507472,3
1698855813.87787,24847,1698855813,877870798,novatel_imu_link,INSPVA,508,0,0,20,2286,318232060,44.241151742,-76.5098767099,72.8042068481,0.573,9.0114536285,0.0678901151,-0.0359648761,0.5620837507,86.1979693698,3
1698855813.89787,24848,1698855813,897870779,novatel_imu_link,INSPVA,508,0,0,20,2286,318232080,44.2411518477,-76.5098744525,72.8055343628,0.585,9.0113611221,0.0691793561,-0.0425527444,0.5642047359,86.1255616446,3
1698855813.91787,24849,1698855813,917870759,novatel_imu_link,INSPVA,508,0,0,20,2286,318232100,44.2411519543,-76.5098721948,72.8069915771,0.584,9.0112333298,0.0781224892,-0.0443043164,0.5616448566,86.0536877149,3
1698855813.93787,24850,1698855813,937870740,novatel_imu_link,INSPVA,508,0,0,20,2286,318232120,44.2411520615,-76.509869938,72.8086547852,0.592,9.0045318604,0.0913354978,-0.0302203073,0.5605430671,85.9877324452,3
1698855813.95787,24851,1698855813,957870721,novatel_imu_link,INSPVA,508,0,0,20,2286,318232140,44.2411521714,-76.5098676831,72.8105545044,0.611,8.996928215,0.0966700613,-0.0124851812,0.5713321908,85.9309251113,3
1698855813.97787,24852,1698855813,977870702,novatel_imu_link,INSPVA,508,0,0,20,2286,318232160,44.2411522833,-76.5098654297,72.8123016357,0.611,8.9937381744,0.0800182223,0.0048291881,0.5845804344,85.8762587278,3
1698855813.99787,24853,1698855813,997870683,novatel_imu_link,INSPVA,508,0,0,20,2286,318232180,44.2411523949,-76.5098631765,72.8139266968,0.61,8.9909820557,0.0870568603,0.0366849938,0.597532838,85.822189181,3
1698855814.01787,24854,1698855814,17870664,novatel_imu_link,INSPVA,508,0,0,20,2286,318232200,44.2411525065,-76.5098609249,72.815612793,0.611,8.9825305939,0.0813491195,0.0793478795,0.6245516665,85.7681539039,3
1698855814.03787,24855,1698855814,37870645,novatel_imu_link,INSPVA,508,0,0,20,2286,318232220,44.241152619,-76.5098586731,72.8172302246,0.616,8.9878530502,0.0868444517,0.1189595381,0.6464087414,85.7120456388,3
1698855814.05787,24856,1698855814,57870626,novatel_imu_link,INSPVA,508,0,0,20,2286,318232240,44.2411527318,-76.5098564199,72.8189926147,0.614,8.9978246689,0.0863594264,0.1644852905,0.6706376667,85.6559045978,3
1698855814.07787,24857,1698855814,77870607,novatel_imu_link,INSPVA,508,0,0,20,2286,318232260,44.2411528446,-76.5098541647,72.8205871582,0.618,8.9971103668,0.0785775408,0.2026713153,0.6780965177,85.6000527746,3
1698855814.09787,24858,1698855814,97870588,novatel_imu_link,INSPVA,508,0,0,20,2286,318232280,44.2411529586,-76.5098519106,72.8222427368,0.626,8.9988708496,0.087680161,0.2409283239,0.7006321029,85.5475919617,3
1698855814.11787,24859,1698855814,117870569,novatel_imu_link,INSPVA,508,0,0,20,2286,318232300,44.2411530742,-76.5098496542,72.8238601685,0.641,9.0075855255,0.0751947537,0.2651544996,0.7110764752,85.4952661215,3
1698855814.13787,24860,1698855814,137870550,novatel_imu_link,INSPVA,508,0,0,20,2286,318232320,44.2411531938,-76.5098473967,72.8254165649,0.664,9.0101776123,0.083849147,0.276475137,0.7181275156,85.448336202,3
1698855814.15787,24861,1698855814,157870531,novatel_imu_link,INSPVA,508,0,0,20,2286,318232340,44.2411533166,-76.5098451392,72.8269958496,0.683,9.009016037,0.0737985894,0.2795659465,0.7254251576,85.4036337868,3
1698855814.17787,24862,1698855814,177870512,novatel_imu_link,INSPVA,508,0,0,20,2286,318232360,44.2411534421,-76.5098428816,72.828453064,0.695,9.0107774734,0.0770419464,0.2761614926,0.7302055383,85.3626320106,3
1698855814.19787,24863,1698855814,197870492,novatel_imu_link,INSPVA,508,0,0,20,2286,318232380,44.2411535704,-76.5098406243,72.8300094604,0.711,9.0081930161,0.077591233,0.2753668568,0.7398329119,85.3300149735,3
1698855814.21787,24864,1698855814,217870473,novatel_imu_link,INSPVA,508,0,0,20,2286,318232400,44.2411536993,-76.5098383668,72.8315505981,0.71,9.0145788193,0.0815672949,0.2733550498,0.7451217648,85.3014978507,3
1698855814.23787,24865,1698855814,237870454,novatel_imu_link,INSPVA,508,0,0,20,2286,318232420,44.2411538302,-76.5098361071,72.8333969116,0.73,9.02597332,0.1020295843,0.2754316112,0.7409223002,85.2799865732,3
1698855814.25787,24866,1698855814,257870435,novatel_imu_link,INSPVA,508,0,0,20,2286,318232440,44.2411539628,-76.5098338452,72.8354415894,0.731,9.0325708389,0.1013360843,0.2763599578,0.7287116803,85.2633271421,3
1698855814.27787,24867,1698855814,277870416,novatel_imu_link,INSPVA,508,0,0,20,2286,318232460,44.2411540953,-76.5098315823,72.8374328613,0.729,9.0347290039,0.1008304805,0.2858875888,0.7158436649,85.2473775541,3
1698855814.29787,24868,1698855814,297870397,novatel_imu_link,INSPVA,508,0,0,20,2286,318232480,44.2411542275,-76.5098293186,72.8394851685,0.738,9.0373325348,0.1063901559,0.292432829,0.7000646553,85.2271473285,3
1698855814.31787,24869,1698855814,317870378,novatel_imu_link,INSPVA,508,0,0,20,2286,318232500,44.2411543626,-76.5098270546,72.8416290283,0.753,9.040810585,0.1066097245,0.2921532739,0.6812106765,85.2099002713,3
1698855814.33787,24870,1698855814,337870359,novatel_imu_link,INSPVA,508,0,0,20,2286,318232520,44.2411545,-76.5098247896,72.8436813354,0.767,9.0443334579,0.0967969298,0.277703289,0.6608337496,85.1928099607,3
1698855814.35787,24871,1698855814,357870340,novatel_imu_link,INSPVA,508,0,0,20,2286,318232540,44.2411546377,-76.5098225239,72.8455200195,0.757,9.0467987061,0.091357097,0.2621181531,0.6392849452,85.1746861718,3
1698855814.37787,24872,1698855814,377870321,novatel_imu_link,INSPVA,508,0,0,20,2286,318232560,44.2411547736,-76.5098202587,72.8474655151,0.748,9.0397396088,0.1021858975,0.2573807771,0.6213828487,85.1575849797,3
1698855814.39787,24873,1698855814,397870302,novatel_imu_link,INSPVA,508,0,0,20,2286,318232580,44.2411549084,-76.5098179949,72.849395752,0.752,9.0387144089,0.0889979675,0.2538396934,0.6139419755,85.1426346655,3
1698855814.41787,24874,1698855814,417870283,novatel_imu_link,INSPVA,508,0,0,20,2286,318232600,44.2411550448,-76.5098157312,72.8511199951,0.758,9.0390625,0.0870526806,0.244066532,0.6066573444,85.1326428564,3
1698855814.43787,24875,1698855814,437870264,novatel_imu_link,INSPVA,508,0,0,20,2286,318232620,44.2411551811,-76.5098134683,72.8528366089,0.758,9.0357522964,0.0809718519,0.2360107546,0.6050576982,85.1246683436,3
1698855814.45787,24876,1698855814,457870244,novatel_imu_link,INSPVA,508,0,0,20,2286,318232640,44.2411553165,-76.5098112049,72.8543930054,0.749,9.0419816971,0.0787476227,0.2321468034,0.6007859927,85.1187363929,3
1698855814.47787,24877,1698855814,477870225,novatel_imu_link,INSPVA,508,0,0,20,2286,318232660,44.2411554513,-76.5098089399,72.856010437,0.747,9.0474805832,0.0817312598,0.236999886,0.5994856482,85.1157671421,3
1698855814.49787,24878,1698855814,497870206,novatel_imu_link,INSPVA,508,0,0,20,2286,318232680,44.2411555839,-76.5098066736,72.8576278687,0.733,9.051410675,0.0816165507,0.2519582399,0.5930312832,85.1146108085,3
1698855814.51787,24879,1698855814,517870187,novatel_imu_link,INSPVA,508,0,0,20,2286,318232700,44.2411557155,-76.5098044068,72.8593215942,0.733,9.0591535568,0.0856395885,0.277213649,0.5863707478,85.1175343615,3
1698855814.53787,24880,1698855814,537870168,novatel_imu_link,INSPVA,508,0,0,20,2286,318232720,44.2411558471,-76.5098021371,72.8608856201,0.739,9.0709695816,0.0691803917,0.2932992425,0.5698036998,85.1214389502,3
1698855814.55787,24881,1698855814,557870149,novatel_imu_link,INSPVA,508,0,0,20,2286,318232740,44.2411559806,-76.5097998663,72.8622436523,0.75,9.0683908463,0.0692026168,0.2979154824,0.5530398653,85.1267736514,3
1698855814.57787,24882,1698855814,577870130,novatel_imu_link,INSPVA,508,0,0,20,2286,318232760,44.2411561154,-76.5097975949,72.8635787964,0.756,9.0755834579,0.0635219812,0.2918472039,0.5403894818,85.1293525462,3
1698855814.59787,24883,1698855814,597870111,novatel_imu_link,INSPVA,508,0,0,20,2286,318232780,44.2411562509,-76.5097953217,72.8648071289,0.758,9.0823011398,0.0620256811,0.2795691932,0.5205809382,85.1284533568,3
1698855814.61787,24884,1698855814,617870092,novatel_imu_link,INSPVA,508,0,0,20,2286,318232800,44.2411563874,-76.5097930474,72.8660354614,0.766,9.0866937637,0.0565112233,0.2610572706,0.4973858491,85.1252522342,3
1698855814.63787,24885,1698855814,637870073,novatel_imu_link,INSPVA,508,0,0,20,2286,318232820,44.2411565246,-76.5097907721,72.8670578003,0.762,9.0893726349,0.0477565452,0.2420360061,0.4733592324,85.1238963873,3
1698855814.65787,24886,1698855814,657870054,novatel_imu_link,INSPVA,508,0,0,20,2286,318232840,44.2411566605,-76.5097884961,72.868057251,0.753,9.0897140503,0.0547862723,0.2287000326,0.4524251211,85.1238410318,3
1698855814.67787,24887,1698855814,677870035,novatel_imu_link,INSPVA,508,0,0,20,2286,318232860,44.2411567947,-76.5097862193,72.8691711426,0.741,9.0947132111,0.057166867,0.2266268307,0.4334228239,85.125756576,3
1698855814.69787,24888,1698855814,697870016,novatel_imu_link,INSPVA,508,0,0,20,2286,318232880,44.2411569277,-76.5097839418,72.8703384399,0.74,9.0965833664,0.0608314984,0.2318266844,0.411348864,85.1323101193,3
1698855814.71787,24889,1698855814,717869997,novatel_imu_link,INSPVA,508,0,0,20,2286,318232900,44.2411570593,-76.5097816637,72.87159729,0.72,9.1016788483,0.0636760518,0.2507850522,0.3903523685,85.1397610404,3
1698855814.73787,24890,1698855814,737869977,novatel_imu_link,INSPVA,508,0,0,20,2286,318232920,44.2411571872,-76.509779385,72.8727874756,0.704,9.0985994339,0.0575669035,0.2842569335,0.3725399257,85.1437911245,3
1698855814.75787,24891,1698855814,757869958,novatel_imu_link,INSPVA,508,0,0,20,2286,318232940,44.2411573128,-76.5097771065,72.8739242554,0.69,9.096452713,0.0573034957,0.3251091341,0.3627953979,85.148781686,3
1698855814.77787,24892,1698855814,777869939,novatel_imu_link,INSPVA,508,0,0,20,2286,318232960,44.241157437,-76.5097748287,72.8750228882,0.687,9.0941457748,0.0562121347,0.3667266787,0.3604138676,85.1536896035,3
1698855814.79787,24893,1698855814,797869920,novatel_imu_link,INSPVA,508,0,0,20,2286,318232980,44.2411575611,-76.5097725521,72.8761825562,0.691,9.0872182846,0.0603727773,0.3984951759,0.361404195,85.1571421331,3
1698855814.81787,24894,1698855814,817869901,novatel_imu_link,INSPVA,508,0,0,20,2286,318233000,44.2411576865,-76.5097702767,72.8773498535,0.694,9.0829954147,0.055781763,0.4191644638,0.3717865837,85.1604130454,3
1698855814.83787,24895,1698855814,837869882,novatel_imu_link,INSPVA,508,0,0,20,2286,318233020,44.2411578123,-76.5097680025,72.8783721924,0.697,9.0742092133,0.050246194,0.4294535986,0.3928095743,85.1619424954,3
1698855814.85787,24896,1698855814,857869863,novatel_imu_link,INSPVA,508,0,0,20,2286,318233040,44.2411579387,-76.50976573,72.8793487549,0.695,9.0659542084,0.0492980033,0.4436002703,0.4250792411,85.1642182859,3
1698855814.87787,24897,1698855814,877869844,novatel_imu_link,INSPVA,508,0,0,20,2286,318233060,44.2411580649,-76.5097634594,72.8802719116,0.702,9.0611400604,0.0471092165,0.4553138237,0.468187069,85.1657399264,3
1698855814.89787,24898,1698855814,897869825,novatel_imu_link,INSPVA,508,0,0,20,2286,318233080,44.2411581939,-76.5097611901,72.8812179565,0.718,9.0549230576,0.0497394986,0.4648844293,0.5145770534,85.1750060105,3
1698855814.91787,24899,1698855814,917869806,novatel_imu_link,INSPVA,508,0,0,20,2286,318233100,44.2411583254,-76.5097589226,72.8822097778,0.733,9.0493488312,0.0523076765,0.462497894,0.5707365064,85.186086246,3
1698855814.93787,24900,1698855814,937869787,novatel_imu_link,INSPVA,508,0,0,20,2286,318233120,44.2411584596,-76.5097566552,72.8832473755,0.742,9.0508451462,0.0548918284,0.456863212,0.6288500663,85.2009749122,3
1698855814.95787,24901,1698855814,957869768,novatel_imu_link,INSPVA,508,0,0,20,2286,318233140,44.2411585942,-76.5097543864,72.8843536377,0.739,9.0566282272,0.0583162867,0.452629906,0.687503446,85.2153900593,3
1698855814.97787,24902,1698855814,977869749,novatel_imu_link,INSPVA,508,0,0,20,2286,318233160,44.2411587292,-76.5097521162,72.8855438232,0.746,9.0632867813,0.0652887374,0.4504463109,0.7426589972,85.2290768714,3
1698855814.99787,24903,1698855814,997869729,novatel_imu_link,INSPVA,508,0,0,20,2286,318233180,44.2411588657,-76.5097498445,72.8868865967,0.755,9.0687389374,0.0694983602,0.4432966467,0.7936473728,85.2417952671,3
1698855815.01787,24904,1698855815,17869710,novatel_imu_link,INSPVA,508,0,0,20,2286,318233200,44.2411590036,-76.5097475717,72.8882293701,0.759,9.076540947,0.0690866411,0.4273592025,0.8410734552,85.2529125848,3
1698855815.03787,24905,1698855815,37869691,novatel_imu_link,INSPVA,508,0,0,20,2286,318233220,44.2411591418,-76.5097452963,72.8896713257,0.759,9.0824260712,0.0791347101,0.4062969161,0.8817171643,85.2614428953,3
1698855815.05787,24906,1698855815,57869672,novatel_imu_link,INSPVA,508,0,0,20,2286,318233240,44.2411592795,-76.5097430189,72.8912353516,0.751,9.0941829681,0.0794662535,0.385885548,0.9240870072,85.2683688247,3
1698855815.07787,24907,1698855815,77869653,novatel_imu_link,INSPVA,508,0,0,20,2286,318233260,44.2411594167,-76.5097407378,72.8928375244,0.755,9.1077289581,0.0872255489,0.3621469711,0.9515273308,85.2724991559,3
1698855815.09787,24908,1698855815,97869634,novatel_imu_link,INSPVA,508,0,0,20,2286,318233280,44.241159553,-76.509738454,72.8946838379,0.738,9.1192626953,0.0987267494,0.3446214394,0.9715565783,85.2766819888,3
1698855815.11787,24909,1698855815,117869615,novatel_imu_link,INSPVA,508,0,0,20,2286,318233300,44.2411596869,-76.5097361676,72.8966903687,0.733,9.1306362152,0.1066367403,0.3377763794,0.9838422958,85.2816097518,3
1698855815.13787,24910,1698855815,137869596,novatel_imu_link,INSPVA,508,0,0,20,2286,318233320,44.2411598193,-76.5097338779,72.8988876343,0.723,9.14320755,0.1132421717,0.339183558,0.9882551331,85.2884865057,3
1698855815.15787,24911,1698855815,157869577,novatel_imu_link,INSPVA,508,0,0,20,2286,318233340,44.2411599507,-76.509731586,72.9011688232,0.72,9.1492261887,0.1206293553,0.3447465951,0.9850169211,85.2965819338,3
1698855815.17787,24912,1698855815,177869558,novatel_imu_link,INSPVA,508,0,0,20,2286,318233360,44.241160081,-76.5097292927,72.9037246704,0.716,9.1553697586,0.1360426396,0.3557968189,0.9796055637,85.3066202822,3
1698855815.19787,24913,1698855815,197869539,novatel_imu_link,INSPVA,508,0,0,20,2286,318233380,44.2411602111,-76.5097269969,72.9064331055,0.716,9.1707401276,0.1377315223,0.3706311394,0.9678435335,85.3198568747,3
1698855815.21787,24914,1698855815,217869520,novatel_imu_link,INSPVA,508,0,0,20,2286,318233400,44.2411603407,-76.5097246977,72.9092712402,0.714,9.1818704605,0.1466074139,0.384521728,0.9439281945,85.3322784819,3
1698855815.23787,24915,1698855815,237869501,novatel_imu_link,INSPVA,508,0,0,20,2286,318233420,44.2411604696,-76.5097223963,72.912109375,0.707,9.1920204163,0.137926653,0.3995467172,0.9164682084,85.34375641,3
1698855815.25787,24916,1698855815,257869482,novatel_imu_link,INSPVA,508,0,0,20,2286,318233440,44.2411605975,-76.5097200924,72.9148254395,0.705,9.2005405426,0.1373600066,0.4130293747,0.8821764489,85.3541399081,3
1698855815.27787,24917,1698855815,277869462,novatel_imu_link,INSPVA,508,0,0,20,2286,318233460,44.2411607242,-76.5097177867,72.9175109863,0.694,9.2080411911,0.1297584176,0.4291596645,0.8473016843,85.3639834369,3
1698855815.29787,24918,1698855815,297869443,novatel_imu_link,INSPVA,508,0,0,20,2286,318233480,44.2411608492,-76.5097154793,72.9199829102,0.691,9.213303566,0.1234648004,0.4453907439,0.8086872097,85.3713537399,3
1698855815.31787,24919,1698855815,317869424,novatel_imu_link,INSPVA,508,0,0,20,2286,318233500,44.2411609734,-76.5097131711,72.9224777222,0.686,9.2167100906,0.1248612106,0.4632869974,0.77208882,85.376607887,3
1698855815.33787,24920,1698855815,337869405,novatel_imu_link,INSPVA,508,0,0,20,2286,318233520,44.2411610981,-76.5097108618,72.9248428345,0.697,9.2234792709,0.1134077907,0.4715040237,0.7335260143,85.3805267942,3
1698855815.35787,24921,1698855815,357869386,novatel_imu_link,INSPVA,508,0,0,20,2286,318233540,44.2411612234,-76.5097085522,72.9270706177,0.692,9.2195501328,0.1093473136,0.4768724079,0.6952892665,85.3835985532,3
1698855815.37787,24922,1698855815,377869367,novatel_imu_link,INSPVA,508,0,0,20,2286,318233560,44.2411613477,-76.5097062424,72.9291381836,0.689,9.2258529663,0.0981467143,0.4878888732,0.6643636977,85.384809326,3
1698855815.39787,24923,1698855815,397869348,novatel_imu_link,INSPVA,508,0,0,20,2286,318233580,44.2411614705,-76.5097039321,72.931060791,0.68,9.2226266861,0.0973240584,0.5033557215,0.6348246342,85.3849365287,3
1698855815.41787,24924,1698855815,417869329,novatel_imu_link,INSPVA,508,0,0,20,2286,318233600,44.2411615929,-76.5097016213,72.9329299927,0.684,9.2312784195,0.0875340253,0.5239966364,0.6080997511,85.3867568461,3
1698855815.43787,24925,1698855815,437869310,novatel_imu_link,INSPVA,508,0,0,20,2286,318233620,44.2411617159,-76.5096993091,72.9346313477,0.688,9.2365903854,0.0882296637,0.5412240922,0.5757241527,85.3915173383,3
1698855815.45787,24926,1698855815,457869291,novatel_imu_link,INSPVA,508,0,0,20,2286,318233640,44.2411618394,-76.5096969961,72.9365005493,0.689,9.2373504639,0.0937037393,0.5594361119,0.5422273573,85.3967959808,3
1698855815.47787,24927,1698855815,477869272,novatel_imu_link,INSPVA,508,0,0,20,2286,318233660,44.2411619629,-76.5096946832,72.9382781982,0.691,9.2391681671,0.0873241723,0.5742798835,0.5145033675,85.4013747285,3
1698855815.49787,24928,1698855815,497869253,novatel_imu_link,INSPVA,508,0,0,20,2286,318233680,44.2411620861,-76.5096923701,72.9400100708,0.687,9.2336130142,0.0841388181,0.5915736772,0.490326135,85.4067376042,3
1698855815.51787,24929,1698855815,517869234,novatel_imu_link,INSPVA,508,0,0,20,2286,318233700,44.2411622086,-76.5096900589,72.9415435791,0.683,9.2291440964,0.0694797561,0.6101249471,0.478589407,85.4108240159,3
1698855815.53787,24930,1698855815,537869215,novatel_imu_link,INSPVA,508,0,0,20,2286,318233720,44.2411623299,-76.5096877497,72.942855835,0.677,9.21763134,0.063805297,0.6273836831,0.4759207026,85.4121908657,3
1698855815.55787,24931,1698855815,557869195,novatel_imu_link,INSPVA,508,0,0,20,2286,318233740,44.2411624504,-76.5096854429,72.9440765381,0.675,9.2157917023,0.0571513213,0.6447800744,0.4869160851,85.4140936525,3
1698855815.57787,24932,1698855815,577869176,novatel_imu_link,INSPVA,508,0,0,20,2286,318233760,44.2411625705,-76.5096831368,72.9452056885,0.673,9.2081279755,0.0582265295,0.6600833058,0.5021078112,85.4171063758,3
1698855815.59787,24933,1698855815,597869157,novatel_imu_link,INSPVA,508,0,0,20,2286,318233780,44.2411626901,-76.509680832,72.9464569092,0.671,9.2053928375,0.0663256347,0.6768529796,0.5299304362,85.4201116546,3
1698855815.61787,24934,1698855815,617869138,novatel_imu_link,INSPVA,508,0,0,20,2286,318233800,44.2411628107,-76.5096785275,72.9477615356,0.681,9.2036972046,0.0652972609,0.6936689579,0.5622024913,85.4253781572,3
1698855815.63787,24935,1698855815,637869119,novatel_imu_link,INSPVA,508,0,0,20,2286,318233820,44.2411629325,-76.5096762241,72.9490890503,0.683,9.1977586746,0.0667966828,0.7091121093,0.5969823062,85.4326924128,3
1698855815.65787,24936,1698855815,657869100,novatel_imu_link,INSPVA,508,0,0,20,2286,318233840,44.241163055,-76.5096739219,72.9504241943,0.692,9.197177887,0.0680213049,0.7188308833,0.6400807527,85.4403589275,3
1698855815.67787,24937,1698855815,677869081,novatel_imu_link,INSPVA,508,0,0,20,2286,318233860,44.2411631804,-76.5096716195,72.9517745972,0.709,9.1938123703,0.0684699416,0.7189946879,0.6852119866,85.4506878766,3
